{
  "features": [
    {
      "type": "Feature",
      "geometry": {
        "coordinates": [
          105.7995291,
          21.0286698
        ],
        "type": "Point"
      },
      "properties": {
        "name": "Cafe Film 3D Box",
        "Address": "455 Nguyễn Khang, Yên Hoà"
      }
    },
    {
      "type": "Feature",
      "geometry": {
        "coordinates": [
          105.7951715,
          21.0152144
        ],
        "type": "Point"
      },
      "properties": {
        "name": "Phở Gà Bà Tố",
        "Address": "66 Trung Kính, Yên Hoà"
      }
    },
    {
      "type": "Feature",
      "geometry": {
        "coordinates": [
          105.8066691,
          21.028232
        ],
        "type": "Point"
      },
      "properties": {
        "name": "Quán May",
        "Address": "1073 Đê la Thành, Láng Thượng"
      }
    },
    {
      "type": "Feature",
      "geometry": {
        "coordinates": [
          105.7930974,
          21.0068602
        ],
        "type": "Point"
      },
      "properties": {
        "name": "Pizza Hut",
        "Address": "Big C Thăng Long 222 Trần Duy Hưng, Cau Giay Ward"
      }
    },
    {
      "type": "Feature",
      "geometry": {
        "coordinates": [
          105.7876693,
          21.0321388
        ],
        "type": "Point"
      },
      "properties": {
        "name": "Biển Đông Restaurant",
        "Address": "Số 2 Ngõ 84 Trần Thái Tông, Dịch Vọng Hậu"
      }
    },
    {
      "type": "Feature",
      "geometry": {
        "coordinates": [
          105.7883047,
          21.0321654
        ],
        "type": "Point"
      },
      "properties": {
        "name": "Kichi - Kichi Restaurant",
        "Address": "105 Trần Thái Tông, Dịch Vọng Hậu"
      }
    },
    {
      "type": "Feature",
      "geometry": {
        "coordinates": [
          105.8015874,
          21.012795
        ],
        "type": "Point"
      },
      "properties": {
        "name": "Nhà hàng Bia Tiệp Trúc Viên",
        "Address": "Số 40 đường Trần Duy Hưng, phường Trung Hòa, Trung Hoà"
      }
    },
    {
      "type": "Feature",
      "geometry": {
        "coordinates": [
          105.7924524,
          21.0073945
        ],
        "type": "Point"
      },
      "properties": {
        "name": "SumoBBQ BigC",
        "Address": "Big C, Tầng 1, 222 Trần Duy Hưng, Trung Hoà"
      }
    },
    {
      "type": "Feature",
      "geometry": {
        "coordinates": [
          105.7883942,
          21.0328467
        ],
        "type": "Point"
      },
      "properties": {
        "name": "GoGi House Trần Thái Tông",
        "Address": "103D5A, Trần Thái Tông, Dịch Vọng Hậu"
      }
    },
    {
      "type": "Feature",
      "geometry": {
        "coordinates": [
          105.8014914,
          21.0191234
        ],
        "type": "Point"
      },
      "properties": {
        "name": "Mơ Hoa Restaurant",
        "Address": "89 Nguyễn Khang, Cầu Giấy"
      }
    },
    {
      "type": "Feature",
      "geometry": {
        "coordinates": [
          105.7832789,
          21.0314034
        ],
        "type": "Point"
      },
      "properties": {
        "name": "Núi Tản Restaurant",
        "Address": "78, Phố Duy Tân, Dịch Vọng Hậu"
      }
    },
    {
      "type": "Feature",
      "geometry": {
        "coordinates": [
          105.8030283,
          21.0166681
        ],
        "type": "Point"
      },
      "properties": {
        "name": "Nhà Hàng Sóng Biển",
        "Address": "47 Nguyễn Khang, Trung Hoà"
      }
    },
    {
      "type": "Feature",
      "geometry": {
        "coordinates": [
          105.8000457,
          21.0160328
        ],
        "type": "Point"
      },
      "properties": {
        "name": "KFC Restaurant Trung Hòa",
        "Address": "Số 1, Lô 13B, Khu ĐTM Trung Yên, Trung Hòa, Trung Hoà"
      }
    },
    {
      "type": "Feature",
      "geometry": {
        "coordinates": [
          105.8007709,
          21.0199609
        ],
        "type": "Point"
      },
      "properties": {
        "name": "Lẩu Nấm Gia Khánh",
        "Address": "67 Vũ Phạm Hàm, Yên Hoà"
      }
    },
    {
      "type": "Feature",
      "geometry": {
        "coordinates": [
          105.7934391,
          21.0358265
        ],
        "type": "Point"
      },
      "properties": {
        "name": "Dong Son Drum Restaurant",
        "Address": "1 Trần Đăng Ninh, Dịch Vọng"
      }
    },
    {
      "type": "Feature",
      "geometry": {
        "coordinates": [
          105.7780583,
          21.0153649
        ],
        "type": "Point"
      },
      "properties": {
        "name": "Pizza Hoa Ý",
        "Address": "45 Mễ Trì, Mỹ Đình"
      }
    },
    {
      "type": "Feature",
      "geometry": {
        "coordinates": [
          105.8007317,
          21.0086901
        ],
        "type": "Point"
      },
      "properties": {
        "name": "Quán Nem Hoàng Đạo Thuý",
        "Address": "Tòa A - Udic complex N04, Khu ẩm thực, Hoàng Đạo Thúy, Trung Hoà"
      }
    },
    {
      "type": "Feature",
      "geometry": {
        "coordinates": [
          105.7942035,
          21.0099732
        ],
        "type": "Point"
      },
      "properties": {
        "name": "Phở Gà Huy Khánh",
        "Address": "Nguyễn Chánh, Trung Hoà"
      }
    },
    {
      "type": "Feature",
      "geometry": {
        "coordinates": [
          105.7914452,
          21.0361273
        ],
        "type": "Point"
      },
      "properties": {
        "name": "KFC Cầu Giấy",
        "Address": "372-374 Đường Cầu Giấy, Dịch Vọng"
      }
    },
    {
      "type": "Feature",
      "geometry": {
        "coordinates": [
          105.7900528,
          21.0316346
        ],
        "type": "Point"
      },
      "properties": {
        "name": "Công ty cổ phần DEVYT",
        "Address": "55 Trương Công Giai, Dịch Vọng"
      }
    },
    {
      "type": "Feature",
      "geometry": {
        "coordinates": [
          105.8016292,
          21.0187769
        ],
        "type": "Point"
      },
      "properties": {
        "name": "Royal Karaoke",
        "Address": "85 Nguyễn Khang, Yên Hoà"
      }
    },
    {
      "type": "Feature",
      "geometry": {
        "coordinates": [
          105.8011692,
          21.0196664
        ],
        "type": "Point"
      },
      "properties": {
        "name": "Dragon Karaoke",
        "Address": "12 Nguyễn Khang, Yên Hoà"
      }
    },
    {
      "type": "Feature",
      "geometry": {
        "coordinates": [
          105.7868402,
          21.0191262
        ],
        "type": "Point"
      },
      "properties": {
        "name": "Grand Vin de Bordeaux Wine House",
        "Address": "Tầng 2-4, 150 Nguyễn Chánh, Khu A10 Nam Trung Yên, Phường Yên Hoà"
      }
    },
    {
      "type": "Feature",
      "geometry": {
        "coordinates": [
          105.7980354,
          21.0176709
        ],
        "type": "Point"
      },
      "properties": {
        "name": "Hải Hói Beer Hall",
        "Address": "Vũ Phạm Hàm, Ngã Tư Trung Yên"
      }
    },
    {
      "type": "Feature",
      "geometry": {
        "coordinates": [
          105.7917896,
          21.0298027
        ],
        "type": "Point"
      },
      "properties": {
        "name": "Lân Beer Quán 2",
        "Address": ""
      }
    },
    {
      "type": "Feature",
      "geometry": {
        "coordinates": [
          105.8005185,
          21.0152939
        ],
        "type": "Point"
      },
      "properties": {
        "name": "Belgian Beer Club BBC",
        "Address": "Số 3, Trung Yên 3, Trung Hoà"
      }
    },
    {
      "type": "Feature",
      "geometry": {
        "coordinates": [
          105.785323,
          21.030436
        ],
        "type": "Point"
      },
      "properties": {
        "name": "Novotel Suites Hanoi",
        "Address": "5 Phố Duy Tân, Dịch Vọng Hậu"
      }
    },
    {
      "type": "Feature",
      "geometry": {
        "coordinates": [
          105.7831733,
          21.0139468
        ],
        "type": "Point"
      },
      "properties": {
        "name": "Minh Châu Brewpup",
        "Address": "Mễ Trì"
      }
    },
    {
      "type": "Feature",
      "geometry": {
        "coordinates": [
          105.7787513,
          21.0211029
        ],
        "type": "Point"
      },
      "properties": {
        "name": "Karaoke Blue",
        "Address": "Mỹ Đình"
      }
    },
    {
      "type": "Feature",
      "geometry": {
        "coordinates": [
          105.7996215,
          21.01086639999999
        ],
        "type": "Point"
      },
      "properties": {
        "name": "Karaoke iSing",
        "Address": "116 Trần Duy Hưng, Trung Hoà"
      }
    },
    {
      "type": "Feature",
      "geometry": {
        "coordinates": [
          105.7888465,
          21.034172
        ],
        "type": "Point"
      },
      "properties": {
        "name": "Summit Karaoke",
        "Address": "39 Trần Thái Tông, Dịch Vọng Hậu"
      }
    },
    {
      "type": "Feature",
      "geometry": {
        "coordinates": [
          105.7778303,
          21.021783
        ],
        "type": "Point"
      },
      "properties": {
        "name": "Nam Dương Karaoke Club",
        "Address": "so 10 pho Thien Hien Nam, Mỹ Đình"
      }
    },
    {
      "type": "Feature",
      "geometry": {
        "coordinates": [
          105.8057679,
          21.0166246
        ],
        "type": "Point"
      },
      "properties": {
        "name": "Cheers Beer",
        "Address": "98 Nguyễn Chí Thanh, Láng Thượng"
      }
    },
    {
      "type": "Feature",
      "geometry": {
        "coordinates": [
          105.8074858,
          21.02336339999999
        ],
        "type": "Point"
      },
      "properties": {
        "name": "Moonlight Karaoke Club",
        "Address": "54 Chùa Láng, Láng Thượng"
      }
    },
    {
      "type": "Feature",
      "geometry": {
        "coordinates": [
          105.8017614,
          21.0097771
        ],
        "type": "Point"
      },
      "properties": {
        "name": "Bar Phan",
        "Address": "Trung Hoà"
      }
    },
    {
      "type": "Feature",
      "geometry": {
        "coordinates": [
          105.8082959,
          21.0231612
        ],
        "type": "Point"
      },
      "properties": {
        "name": "Dương Cầm Karaoke",
        "Address": "8 Chùa Láng, Q.Đống Đa, TP.Hà Nội, Láng Thượng"
      }
    },
    {
      "type": "Feature",
      "geometry": {
        "coordinates": [
          105.8011329,
          21.0092622
        ],
        "type": "Point"
      },
      "properties": {
        "name": "Công Ty TNHH Future Generation",
        "Address": "Phòng 2906, Lầu 29, Tòa Nhà 34 Tầng, Khu Đô Thị Trung - Hòa Nhân Chính, Quận Cầu Giấy, Trung Hoà"
      }
    },
    {
      "type": "Feature",
      "geometry": {
        "coordinates": [
          105.7952688,
          21.0367584
        ],
        "type": "Point"
      },
      "properties": {
        "name": "Phoenix shisha",
        "Address": "Ngõ 86 Phố Chùa Hà, Quan Hoa"
      }
    },
    {
      "type": "Feature",
      "geometry": {
        "coordinates": [
          105.798372,
          21.005927
        ],
        "type": "Point"
      },
      "properties": {
        "name": "Paula’s Wines",
        "Address": "B1 Mandarin Garden (Behind Grand Plaza hotel, next to Hanoi-Amsterdam School Hanoi City"
      }
    },
    {
      "type": "Feature",
      "geometry": {
        "coordinates": [
          105.8041844,
          21.0347115
        ],
        "type": "Point"
      },
      "properties": {
        "name": "Karaoke Las Vegas",
        "Address": "1 Nguyễn Khánh Toàn, Quan Hoa"
      }
    },
    {
      "type": "Feature",
      "geometry": {
        "coordinates": [
          105.8341598,
          21.0277644
        ],
        "type": "Point"
      },
      "properties": {
        "name": "Hanoi",
        "Address": "Hanoi"
      }
    },
    {
      "type": "Feature",
      "geometry": {
        "coordinates": [
          105.8105289,
          21.0245153
        ],
        "type": "Point"
      },
      "properties": {
        "name": "Bảo Sơn Hotel",
        "Address": "50 Nguyễn Chí Thanh, Đống Đa"
      }
    },
    {
      "type": "Feature",
      "geometry": {
        "coordinates": [
          105.7970474,
          21.0088818
        ],
        "type": "Point"
      },
      "properties": {
        "name": "Brandi Hotel 2",
        "Address": "202 Trần Duy Hưng, Trung Hoà"
      }
    },
    {
      "type": "Feature",
      "geometry": {
        "coordinates": [
          105.8013168,
          21.0113388
        ],
        "type": "Point"
      },
      "properties": {
        "name": "Lucky Hotel 69",
        "Address": "69 Tran Duy Hung Street, Cau Giay District, Hanoi"
      }
    },
    {
      "type": "Feature",
      "geometry": {
        "coordinates": [
          105.7887439,
          21.0340919
        ],
        "type": "Point"
      },
      "properties": {
        "name": "Yến-Hotel",
        "Address": "66 Trần Thái Tông, Dịch Vọng Hậu"
      }
    },
    {
      "type": "Feature",
      "geometry": {
        "coordinates": [
          105.7945948,
          21.00936949999999
        ],
        "type": "Point"
      },
      "properties": {
        "name": "Hotel Ruby",
        "Address": "56 Nguyễn Chánh, Trung Hoà"
      }
    },
    {
      "type": "Feature",
      "geometry": {
        "coordinates": [
          105.7808897,
          21.0140573
        ],
        "type": "Point"
      },
      "properties": {
        "name": "Ping Hotel Hanoi",
        "Address": "26-28 Mễ Trì Hạ, Mễ Trì"
      }
    },
    {
      "type": "Feature",
      "geometry": {
        "coordinates": [
          105.7992733,
          21.0172312
        ],
        "type": "Point"
      },
      "properties": {
        "name": "Lucky Hotel 142",
        "Address": "No.142 Trung Hoa Street,, Cau Giay, Hanoi, Hanoi, Yên Hoà"
      }
    },
    {
      "type": "Feature",
      "geometry": {
        "coordinates": [
          105.7968023,
          21.0377663
        ],
        "type": "Point"
      },
      "properties": {
        "name": "Mely Hotel 2",
        "Address": "B24 Alley 57 Nguyen Khanh Toan, Cau Giay, Dịch Vọng"
      }
    },
    {
      "type": "Feature",
      "geometry": {
        "coordinates": [
          105.800704,
          21.0124579
        ],
        "type": "Point"
      },
      "properties": {
        "name": "Hotel Phú Nhuận",
        "Address": "18, Ngõ 80 Trần Duy Hưng, Trung Hoà"
      }
    },
    {
      "type": "Feature",
      "geometry": {
        "coordinates": [
          105.7887174,
          21.0336469
        ],
        "type": "Point"
      },
      "properties": {
        "name": "Luxeden hotel",
        "Address": "78 Trần Thái Tông, Dịch Vọng Hậu"
      }
    },
    {
      "type": "Feature",
      "geometry": {
        "coordinates": [
          105.7944483,
          21.0098198
        ],
        "type": "Point"
      },
      "properties": {
        "name": "Mai Villa Hotel 1",
        "Address": "A15, Nguyễn Chánh, Trung Hoà"
      }
    },
    {
      "type": "Feature",
      "geometry": {
        "coordinates": [
          105.798708,
          21.0102381
        ],
        "type": "Point"
      },
      "properties": {
        "name": "Hotel Seoul",
        "Address": "146 Trần Duy Hưng, Trung Hoà"
      }
    },
    {
      "type": "Feature",
      "geometry": {
        "coordinates": [
          105.7887348,
          21.0098579
        ],
        "type": "Point"
      },
      "properties": {
        "name": "Saigon Sun Hotel 3",
        "Address": "20 Phạm Hùng"
      }
    },
    {
      "type": "Feature",
      "geometry": {
        "coordinates": [
          105.80579,
          21.0156294
        ],
        "type": "Point"
      },
      "properties": {
        "name": "Quang Chung Hotel",
        "Address": "No 20, Alley 107, Nguyen Chi Thanh Street, Dong Da District, Láng Hạ"
      }
    },
    {
      "type": "Feature",
      "geometry": {
        "coordinates": [
          105.8046424,
          21.0138374
        ],
        "type": "Point"
      },
      "properties": {
        "name": "Hotel Nam San",
        "Address": "Số 37 Ngõ 1 - Nguyễn Thị Định"
      }
    },
    {
      "type": "Feature",
      "geometry": {
        "coordinates": [
          105.7817144,
          21.0287616
        ],
        "type": "Point"
      },
      "properties": {
        "name": "FPT University Hanoi",
        "Address": "Tòa nhà Detech, Số 8, Tôn Thất Thuyết, Mỹ Đình"
      }
    },
    {
      "type": "Feature",
      "geometry": {
        "coordinates": [
          105.785733,
          21.030753
        ],
        "type": "Point"
      },
      "properties": {
        "name": "Công ty CP Kiến Trúc A1",
        "Address": "58 Phố Duy Tân, Dịch Vọng Hậu"
      }
    },
    {
      "type": "Feature",
      "geometry": {
        "coordinates": [
          105.8007025,
          21.0123002
        ],
        "type": "Point"
      },
      "properties": {
        "name": "Hotel Khải Hoàn",
        "Address": "20 Ngõ 80 Trần Duy Hưng, Trung Hoà"
      }
    },
    {
      "type": "Feature",
      "geometry": {
        "coordinates": [
          105.7988345,
          21.0101531
        ],
        "type": "Point"
      },
      "properties": {
        "name": "Trung Hoà",
        "Address": "Trung Hoà"
      }
    }
  ],
  "type": "FeatureCollection"
}
